markers = [
  {
    "name": "Aparcamiento mixto. Arquitecto Ribera",
    "lng": -3.6996173701222492,
    "url": "/aparcamientos/13470",
    "lat": 40.426687899755734
  },
  {
    "name": "Aparcamiento mixto. Avenida de América (intercambiador)",
    "lng": -3.6766217383743345,
    "url": "/aparcamientos/59060",
    "lat": 40.43886083125741
  },
  {
    "name": "Aparcamiento mixto. Brasil",
    "lng": -3.694131675088486,
    "url": "/aparcamientos/13475",
    "lat": 40.45610834965894
  },
  {
    "name": "Aparcamiento mixto. Casino de la Reina",
    "lng": -3.7046086019457167,
    "url": "/aparcamientos/183747",
    "lat": 40.406792648617134
  },
  {
    "name": "Aparcamiento mixto. Condesa de Gavia",
    "lng": -3.7019164121880888,
    "url": "/aparcamientos/13477",
    "lat": 40.44938567948415
  },
  {
    "name": "Aparcamiento mixto. Corazón de María II",
    "lng": -3.666902094780133,
    "url": "/aparcamientos/24103",
    "lat": 40.444421820483264
  },
  {
    "name": "Aparcamiento mixto. Corona Boreal",
    "lng": -3.78317943069732,
    "url": "/aparcamientos/81736",
    "lat": 40.45852127134047
  },
  {
    "name": "Aparcamiento mixto. Daoíz y Velarde",
    "lng": -3.683557034656531,
    "url": "/aparcamientos/183748",
    "lat": 40.40531540835356
  },
  {
    "name": "Aparcamiento mixto. Díaz Porlier",
    "lng": -3.675728293375598,
    "url": "/aparcamientos/44724",
    "lat": 40.434415601006386
  },
  {
    "name": "Aparcamiento mixto. Encuentro",
    "lng": -3.652048809515808,
    "url": "/aparcamientos/36269",
    "lat": 40.40581270738191
  },
  {
    "name": "Aparcamiento mixto. Felipe II",
    "lng": -3.673433652213169,
    "url": "/aparcamientos/13464",
    "lat": 40.42422175692137
  },
  {
    "name": "Aparcamiento mixto. Fuencarral",
    "lng": -3.7027941027177986,
    "url": "/aparcamientos/13462",
    "lat": 40.42948845687032
  },
  {
    "name": "Aparcamiento mixto. General Yagüe",
    "lng": -3.694067405537416,
    "url": "/aparcamientos/13515",
    "lat": 40.45673936450418
  },
  {
    "name": "Aparcamiento mixto. Hernani",
    "lng": -3.7033919552673127,
    "url": "/aparcamientos/36270",
    "lat": 40.448394729978006
  },
  {
    "name": "Aparcamiento mixto. Jacinto Benavente",
    "lng": -3.70332112917586,
    "url": "/aparcamientos/13459",
    "lat": 40.41444016371457
  },
  {
    "name": "Aparcamiento mixto. José Castán Tobeñas",
    "lng": -3.6916467875121377,
    "url": "/aparcamientos/13479",
    "lat": 40.46451060463543
  },
  {
    "name": "Aparcamiento mixto. Marqués de Salamanca",
    "lng": -3.6792137901324056,
    "url": "/aparcamientos/6143690",
    "lat": 40.43046723981028
  },
  {
    "name": "Aparcamiento mixto. Miguel Yuste",
    "lng": -3.625049272913964,
    "url": "/aparcamientos/182188",
    "lat": 40.4402052387976
  },
  {
    "name": "Aparcamiento mixto. Orense",
    "lng": -3.6962330375922363,
    "url": "/aparcamientos/5517342",
    "lat": 40.45973534025835
  },
  {
    "name": "Aparcamiento mixto. Plaza de Oriente",
    "lng": -3.7116407088004757,
    "url": "/aparcamientos/33440",
    "lat": 40.417632509561116
  },
  {
    "name": "Aparcamiento mixto. Presidente Carmona",
    "lng": -3.6975262417380064,
    "url": "/aparcamientos/36271",
    "lat": 40.45362846199134
  },
  {
    "name": "Aparcamiento mixto. Recoletos",
    "lng": -3.691974283683488,
    "url": "/aparcamientos/13476",
    "lat": 40.42054469225109
  },
  {
    "name": "Aparcamiento mixto. República Dominicana",
    "lng": -3.6765275895176677,
    "url": "/aparcamientos/24193",
    "lat": 40.45887037458626
  },
  {
    "name": "Aparcamiento mixto. Reyes Magos",
    "lng": -3.6762488802382896,
    "url": "/aparcamientos/81828",
    "lat": 40.40870074627349
  },
  {
    "name": "Aparcamiento mixto. San Cayetano",
    "lng": -3.6700799322371056,
    "url": "/aparcamientos/167692",
    "lat": 40.43432235224971
  },
  {
    "name": "Aparcamiento mixto. Sánchez Bustillo",
    "lng": -3.6940145592988043,
    "url": "/aparcamientos/19053",
    "lat": 40.40917205238472
  },
  {
    "name": "Aparcamiento mixto. Serrano I",
    "lng": -3.6857697780390155,
    "url": "/aparcamientos/7416748",
    "lat": 40.43289700914247
  },
  {
    "name": "Aparcamiento mixto. Serrano II",
    "lng": -3.688281097618061,
    "url": "/aparcamientos/7417028",
    "lat": 40.43059379257075
  },
  {
    "name": "Aparcamiento mixto. Serrano III",
    "lng": -3.6897747066093993,
    "url": "/aparcamientos/7417052",
    "lat": 40.42446775888825
  },
  {
    "name": "Aparcamiento mixto. Sevilla",
    "lng": -3.6998082261071747,
    "url": "/aparcamientos/13460",
    "lat": 40.41780383567921
  },
  {
    "name": "Aparcamiento mixto. Vázquez de Mella",
    "lng": -3.699899832865304,
    "url": "/aparcamientos/52114",
    "lat": 40.4209564450911
  },
  {
    "name": "Aparcamiento mixto. Velázquez - Ayala",
    "lng": -3.6841676172873936,
    "url": "/aparcamientos/13458",
    "lat": 40.427203787185476
  },
  {
    "name": "Aparcamiento mixto. Velázquez - Jorge Juan",
    "lng": -3.684339253399854,
    "url": "/aparcamientos/13457",
    "lat": 40.4243649253884
  },
  {
    "name": "Aparcamiento mixto. Verdaguer y García",
    "lng": -3.656505118007155,
    "url": "/aparcamientos/183607",
    "lat": 40.43992277144076
  },
  {
    "name": "Aparcamiento para residentes del Centro Polivalente Barceló",
    "lng": -3.7010885254757215,
    "url": "/aparcamientos/8087180",
    "lat": 40.42645376188213
  },
  {
    "name": "Aparcamiento para residentes.  Ginzo de Limia",
    "lng": -3.701418983284407,
    "url": "/aparcamientos/4829668",
    "lat": 40.48659572222757
  },
  {
    "name": "Aparcamiento para residentes.  Valderromán",
    "lng": -3.7214386928759,
    "url": "/aparcamientos/24139",
    "lat": 40.47084197155435
  },
  {
    "name": "Aparcamiento para residentes. Aguilar de Campóo",
    "lng": -3.71974049893289,
    "url": "/aparcamientos/67711",
    "lat": 40.46425800063576
  },
  {
    "name": "Aparcamiento para residentes. Aguilón",
    "lng": -3.700743991187278,
    "url": "/aparcamientos/13560",
    "lat": 40.39551876450337
  },
  {
    "name": "Aparcamiento para residentes. Agustín Lara",
    "lng": -3.7041936561722837,
    "url": "/aparcamientos/81690",
    "lat": 40.40768707324583
  },
  {
    "name": "Aparcamiento para residentes. Alameda",
    "lng": -3.6937682064196955,
    "url": "/aparcamientos/7439839",
    "lat": 40.41157894870162
  },
  {
    "name": "Aparcamiento para residentes. Alcalde Sáinz de Baranda",
    "lng": -3.6684469760596947,
    "url": "/aparcamientos/24136",
    "lat": 40.4170524678261
  },
  {
    "name": "Aparcamiento para residentes. Alcazaba",
    "lng": -3.7031182584981632,
    "url": "/aparcamientos/17790",
    "lat": 40.47304495112221
  },
  {
    "name": "Aparcamiento para residentes. Alonso Cano",
    "lng": -3.699740715636031,
    "url": "/aparcamientos/81696",
    "lat": 40.438588067952956
  },
  {
    "name": "Aparcamiento para residentes. Altos de Lillo",
    "lng": -3.6188048038957525,
    "url": "/aparcamientos/13561",
    "lat": 40.375103173529624
  },
  {
    "name": "Aparcamiento para residentes. Aluche",
    "lng": -3.7588147232323994,
    "url": "/aparcamientos/19060",
    "lat": 40.392629719913494
  },
  {
    "name": "Aparcamiento para residentes. América Española",
    "lng": -3.662068474281374,
    "url": "/aparcamientos/13494",
    "lat": 40.428900028803746
  },
  {
    "name": "Aparcamiento para residentes. Andorra II",
    "lng": -3.6431161496299156,
    "url": "/aparcamientos/5753573",
    "lat": 40.45907010700822
  },
  {
    "name": "Aparcamiento para residentes. Andévalo",
    "lng": -3.668237382541929,
    "url": "/aparcamientos/13552",
    "lat": 40.374404666864585
  },
  {
    "name": "Aparcamiento para residentes. Angel Carbajo",
    "lng": -3.6942046665141532,
    "url": "/aparcamientos/13514",
    "lat": 40.46205383839361
  },
  {
    "name": "Aparcamiento para residentes. Antonio López",
    "lng": -3.71373239872531,
    "url": "/aparcamientos/13548",
    "lat": 40.39694383653292
  },
  {
    "name": "Aparcamiento para residentes. Antonio Machado",
    "lng": -3.7202575723897997,
    "url": "/aparcamientos/13562",
    "lat": 40.46518270295288
  },
  {
    "name": "Aparcamiento para residentes. Antonio Maura",
    "lng": -3.6907566185159073,
    "url": "/aparcamientos/13554",
    "lat": 40.41674114835766
  },
  {
    "name": "Aparcamiento para residentes. Antonio Mena",
    "lng": -3.6422203378641598,
    "url": "/aparcamientos/24093",
    "lat": 40.4095614372985
  },
  {
    "name": "Aparcamiento para residentes. Antonio Pirala",
    "lng": -3.659649292346212,
    "url": "/aparcamientos/24088",
    "lat": 40.428652595625735
  },
  {
    "name": "Aparcamiento para residentes. Arganda",
    "lng": -3.707637536688371,
    "url": "/aparcamientos/24095",
    "lat": 40.400053390124974
  },
  {
    "name": "Aparcamiento para residentes. Arroyo del Olivar",
    "lng": -3.6572487652878456,
    "url": "/aparcamientos/24096",
    "lat": 40.390341693089944
  },
  {
    "name": "Aparcamiento para residentes. Arroyo Fontarrón",
    "lng": -3.6502824390198167,
    "url": "/aparcamientos/13537",
    "lat": 40.4047325569571
  },
  {
    "name": "Aparcamiento para residentes. Arroyo Media Legua",
    "lng": -3.6555754577111452,
    "url": "/aparcamientos/13536",
    "lat": 40.40975675657818
  },
  {
    "name": "Aparcamiento para residentes. Augusto González Besada",
    "lng": -3.643898652734279,
    "url": "/aparcamientos/13626",
    "lat": 40.40882236801765
  },
  {
    "name": "Aparcamiento para residentes. Azuaga",
    "lng": -3.711629983272826,
    "url": "/aparcamientos/170742",
    "lat": 40.464695605273214
  },
  {
    "name": "Aparcamiento para residentes. Baviera",
    "lng": -3.6636171675129683,
    "url": "/aparcamientos/13633",
    "lat": 40.442530814084584
  },
  {
    "name": "Aparcamiento para residentes. Bañeza",
    "lng": -3.7136073064656374,
    "url": "/aparcamientos/13501",
    "lat": 40.476548210358075
  },
  {
    "name": "Aparcamiento para residentes. Belianes",
    "lng": -3.644210441293518,
    "url": "/aparcamientos/81700",
    "lat": 40.469910833486516
  },
  {
    "name": "Aparcamiento para residentes. Blasco de Garay",
    "lng": -3.711710574902686,
    "url": "/aparcamientos/21182",
    "lat": 40.43320868688477
  },
  {
    "name": "Aparcamiento para residentes. Bohemios",
    "lng": -3.6947064479324707,
    "url": "/aparcamientos/13532",
    "lat": 40.35723045218769
  },
  {
    "name": "Aparcamiento para residentes. Boston",
    "lng": -3.6659853858211267,
    "url": "/aparcamientos/13495",
    "lat": 40.43756223469774
  },
  {
    "name": "Aparcamiento para residentes. Bravo Murillo",
    "lng": -3.7043941647283263,
    "url": "/aparcamientos/13530",
    "lat": 40.43934359051524
  },
  {
    "name": "Aparcamiento para residentes. Brescia",
    "lng": -3.6624839501188746,
    "url": "/aparcamientos/13563",
    "lat": 40.43760037141018
  },
  {
    "name": "Aparcamiento para residentes. Bristol",
    "lng": -3.662100501710677,
    "url": "/aparcamientos/13564",
    "lat": 40.43937734548181
  },
  {
    "name": "Aparcamiento para residentes. Bruselas",
    "lng": -3.6627605793667137,
    "url": "/aparcamientos/13565",
    "lat": 40.43935554500995
  },
  {
    "name": "Aparcamiento para residentes. Burgo de Osma",
    "lng": -3.661815011944474,
    "url": "/aparcamientos/81706",
    "lat": 40.469171734914404
  },
  {
    "name": "Aparcamiento para residentes. Cabestreros",
    "lng": -3.7033886150712214,
    "url": "/aparcamientos/183737",
    "lat": 40.40960189327877
  },
  {
    "name": "Aparcamiento para residentes. Calanda",
    "lng": -3.6414852788262566,
    "url": "/aparcamientos/13566",
    "lat": 40.46244853281621
  },
  {
    "name": "Aparcamiento para residentes. Camarena",
    "lng": -3.756422538379352,
    "url": "/aparcamientos/13499",
    "lat": 40.395762528588946
  },
  {
    "name": "Aparcamiento para residentes. Camino de los Vinateros I",
    "lng": -3.642427258036616,
    "url": "/aparcamientos/13539",
    "lat": 40.4065332387703
  },
  {
    "name": "Aparcamiento para residentes. Camino de los Vinateros II (El Torito)",
    "lng": -3.645861734428852,
    "url": "/aparcamientos/13538",
    "lat": 40.40705464955243
  },
  {
    "name": "Aparcamiento para residentes. Camino Viejo de Leganés",
    "lng": -3.7315364433760196,
    "url": "/aparcamientos/13632",
    "lat": 40.380535147068926
  },
  {
    "name": "Aparcamiento para residentes. Campillo del Mundo Nuevo",
    "lng": -3.707987344713689,
    "url": "/aparcamientos/13518",
    "lat": 40.40644768286364
  },
  {
    "name": "Aparcamiento para residentes. Canal",
    "lng": -3.705412280852862,
    "url": "/aparcamientos/81710",
    "lat": 40.438607652682464
  },
  {
    "name": "Aparcamiento para residentes. Cantabria",
    "lng": -3.5836170692241147,
    "url": "/aparcamientos/13624",
    "lat": 40.459484932285804
  },
  {
    "name": "Aparcamiento para residentes. Castelló",
    "lng": -3.6802461580883605,
    "url": "/aparcamientos/81733",
    "lat": 40.434641357687326
  },
  {
    "name": "Aparcamiento para residentes. Castrillo de Aza",
    "lng": -3.6086097642961814,
    "url": "/aparcamientos/13567",
    "lat": 40.38626552987357
  },
  {
    "name": "Aparcamiento para residentes. Cañada",
    "lng": -3.644204187484202,
    "url": "/aparcamientos/13533",
    "lat": 40.40378459227237
  },
  {
    "name": "Aparcamiento para residentes. Chamberí",
    "lng": -3.697677837203558,
    "url": "/aparcamientos/13636",
    "lat": 40.43293386561711
  },
  {
    "name": "Aparcamiento para residentes. Chaparral",
    "lng": -3.6324688931507403,
    "url": "/aparcamientos/81734",
    "lat": 40.47071441606703
  },
  {
    "name": "Aparcamiento para residentes. Cidamón",
    "lng": -3.6559086956228524,
    "url": "/aparcamientos/13568",
    "lat": 40.45013336925363
  },
  {
    "name": "Aparcamiento para residentes. Clara del Rey",
    "lng": -3.668750355615286,
    "url": "/aparcamientos/13503",
    "lat": 40.444113845496815
  },
  {
    "name": "Aparcamiento para residentes. Codorniz",
    "lng": -3.7504154605075706,
    "url": "/aparcamientos/24099",
    "lat": 40.381116884137015
  },
  {
    "name": "Aparcamiento para residentes. Comandante Benítez",
    "lng": -3.698383469338622,
    "url": "/aparcamientos/13569",
    "lat": 40.39742495168458
  },
  {
    "name": "Aparcamiento para residentes. Condado de Treviño",
    "lng": -3.67040497840857,
    "url": "/aparcamientos/13571",
    "lat": 40.480086139201404
  },
  {
    "name": "Aparcamiento para residentes. Conde de Casal / Mediterraneo",
    "lng": -3.671011625643675,
    "url": "/aparcamientos/24101",
    "lat": 40.40706458224573
  },
  {
    "name": "Aparcamiento para residentes. Corazón de María I",
    "lng": -3.6709413376148086,
    "url": "/aparcamientos/13504",
    "lat": 40.44032637305066
  },
  {
    "name": "Aparcamiento para residentes. Cuevas de Almanzora",
    "lng": -3.658140197005035,
    "url": "/aparcamientos/13500",
    "lat": 40.47940888739177
  },
  {
    "name": "Aparcamiento para residentes. Cumare",
    "lng": -3.6353267838656484,
    "url": "/aparcamientos/81737",
    "lat": 40.469797844264434
  },
  {
    "name": "Aparcamiento para residentes. Cándido Mateos",
    "lng": -3.714991114871764,
    "url": "/aparcamientos/183580",
    "lat": 40.47020636480525
  },
  {
    "name": "Aparcamiento para residentes. Darwin",
    "lng": -3.6443181005580043,
    "url": "/aparcamientos/13535",
    "lat": 40.40831552325078
  },
  {
    "name": "Aparcamiento para residentes. Doce de Octubre",
    "lng": -3.67610289078337,
    "url": "/aparcamientos/183760",
    "lat": 40.41766561139149
  },
  {
    "name": "Aparcamiento para residentes. Doctor Cirajas",
    "lng": -3.6374563613179753,
    "url": "/aparcamientos/13630",
    "lat": 40.435515856536526
  },
  {
    "name": "Aparcamiento para residentes. Doctor Laguna",
    "lng": -3.673493543766057,
    "url": "/aparcamientos/13551",
    "lat": 40.41486100757735
  },
  {
    "name": "Aparcamiento para residentes. Doménico Scarlatti",
    "lng": -3.7153391363661976,
    "url": "/aparcamientos/39871",
    "lat": 40.441852955825894
  },
  {
    "name": "Aparcamiento para residentes. Elvira",
    "lng": -3.6656210687113555,
    "url": "/aparcamientos/4831001",
    "lat": 40.4209426634437
  },
  {
    "name": "Aparcamiento para residentes. Emigrantes",
    "lng": -3.63616695396661,
    "url": "/aparcamientos/24106",
    "lat": 40.46757701332538
  },
  {
    "name": "Aparcamiento para residentes. Encomienda de Palacios",
    "lng": -3.6431678525654076,
    "url": "/aparcamientos/13524",
    "lat": 40.39890743776529
  },
  {
    "name": "Aparcamiento para residentes. Esfinge",
    "lng": -3.6100682055704136,
    "url": "/aparcamientos/13550",
    "lat": 40.4434114032433
  },
  {
    "name": "Aparcamiento para residentes. Espalter",
    "lng": -3.690552192538091,
    "url": "/aparcamientos/170634",
    "lat": 40.412886496253456
  },
  {
    "name": "Aparcamiento para residentes. Esperanza",
    "lng": -3.7054613325975816,
    "url": "/aparcamientos/13558",
    "lat": 40.40267931721201
  },
  {
    "name": "Aparcamiento para residentes. Espinillo",
    "lng": -3.6916474771097763,
    "url": "/aparcamientos/81743",
    "lat": 40.356365890681325
  },
  {
    "name": "Aparcamiento para residentes. Esteban Villegas",
    "lng": -3.683108580090566,
    "url": "/aparcamientos/24108",
    "lat": 40.40875051210095
  },
  {
    "name": "Aparcamiento para residentes. Estrella Polar",
    "lng": -3.6670384786113055,
    "url": "/aparcamientos/13572",
    "lat": 40.41049299906421
  },
  {
    "name": "Aparcamiento para residentes. Eugenia de Montijo",
    "lng": -3.741617241001304,
    "url": "/aparcamientos/24111",
    "lat": 40.38237185259869
  },
  {
    "name": "Aparcamiento para residentes. Ferrol",
    "lng": -3.706488256379613,
    "url": "/aparcamientos/13573",
    "lat": 40.47492529017092
  },
  {
    "name": "Aparcamiento para residentes. Finisterre",
    "lng": -3.7026717892482286,
    "url": "/aparcamientos/13498",
    "lat": 40.47887645814122
  },
  {
    "name": "Aparcamiento para residentes. Fonsagrada",
    "lng": -3.7070236600943316,
    "url": "/aparcamientos/81745",
    "lat": 40.47760668331372
  },
  {
    "name": "Aparcamiento para residentes. Francisco Altimiras",
    "lng": -3.6637111034337244,
    "url": "/aparcamientos/4831271",
    "lat": 40.43409783062514
  },
  {
    "name": "Aparcamiento para residentes. Francisco Rioja",
    "lng": -3.6381424369676703,
    "url": "/aparcamientos/13635",
    "lat": 40.430764308966516
  },
  {
    "name": "Aparcamiento para residentes. Francos Rodríguez",
    "lng": -3.7101896436542843,
    "url": "/aparcamientos/13634",
    "lat": 40.45673152306274
  },
  {
    "name": "Aparcamiento para residentes. Galileo",
    "lng": -3.7115094961765007,
    "url": "/aparcamientos/24119",
    "lat": 40.43314686152789
  },
  {
    "name": "Aparcamiento para residentes. García Escámez",
    "lng": -3.769461928150037,
    "url": "/aparcamientos/13525",
    "lat": 40.38189262322995
  },
  {
    "name": "Aparcamiento para residentes. García Tapia",
    "lng": -3.6461672639418037,
    "url": "/aparcamientos/13534",
    "lat": 40.411890813674326
  },
  {
    "name": "Aparcamiento para residentes. Garrovillas",
    "lng": -3.778525698149745,
    "url": "/aparcamientos/13527",
    "lat": 40.380219332370885
  },
  {
    "name": "Aparcamiento para residentes. General Fanjul",
    "lng": -3.782740723549031,
    "url": "/aparcamientos/17449",
    "lat": 40.381028721740215
  },
  {
    "name": "Aparcamiento para residentes. General Gallegos",
    "lng": -3.6855271656753406,
    "url": "/aparcamientos/81746",
    "lat": 40.4612407669708
  },
  {
    "name": "Aparcamiento para residentes. General Lacy",
    "lng": -3.690569861061406,
    "url": "/aparcamientos/24120",
    "lat": 40.40308453317466
  },
  {
    "name": "Aparcamiento para residentes. Gerardo Cordón",
    "lng": -3.652975774084388,
    "url": "/aparcamientos/13520",
    "lat": 40.427339125243876
  },
  {
    "name": "Aparcamiento para residentes. Germán Pérez Carrasco",
    "lng": -3.647475422428178,
    "url": "/aparcamientos/13574",
    "lat": 40.434009722018914
  },
  {
    "name": "Aparcamiento para residentes. Goya I",
    "lng": -3.6691082296156163,
    "url": "/aparcamientos/13522",
    "lat": 40.42430993482302
  },
  {
    "name": "Aparcamiento para residentes. Guadalete",
    "lng": -3.715263318539688,
    "url": "/aparcamientos/24121",
    "lat": 40.38906044446887
  },
  {
    "name": "Aparcamiento para residentes. Gómez Ulla",
    "lng": -3.667857812017234,
    "url": "/aparcamientos/13615",
    "lat": 40.43018204828575
  },
  {
    "name": "Aparcamiento para residentes. Illescas",
    "lng": -3.7656191852299834,
    "url": "/aparcamientos/13627",
    "lat": 40.39730561114474
  },
  {
    "name": "Aparcamiento para residentes. Ilustración",
    "lng": -3.7154761411305794,
    "url": "/aparcamientos/183559",
    "lat": 40.48033843092407
  },
  {
    "name": "Aparcamiento para residentes. Ilíada",
    "lng": -3.608937018595295,
    "url": "/aparcamientos/5421792",
    "lat": 40.43566058828252
  },
  {
    "name": "Aparcamiento para residentes. Isla de Arosa",
    "lng": -3.715072834653354,
    "url": "/aparcamientos/13502",
    "lat": 40.480133721268786
  },
  {
    "name": "Aparcamiento para residentes. Isla de Ons",
    "lng": -3.72171314015025,
    "url": "/aparcamientos/13575",
    "lat": 40.47994830334666
  },
  {
    "name": "Aparcamiento para residentes. Isla de Tavira",
    "lng": -3.7185680084021824,
    "url": "/aparcamientos/13576",
    "lat": 40.48151743803618
  },
  {
    "name": "Aparcamiento para residentes. Islas Filipinas",
    "lng": -3.714470532658899,
    "url": "/aparcamientos/81748",
    "lat": 40.43888535658937
  },
  {
    "name": "Aparcamiento para residentes. Iván de Vargas",
    "lng": -3.7244623800315098,
    "url": "/aparcamientos/13577",
    "lat": 40.403093358788674
  },
  {
    "name": "Aparcamiento para residentes. Jacinto Verdaguer",
    "lng": -3.7182975916582137,
    "url": "/aparcamientos/13546",
    "lat": 40.395194834650084
  },
  {
    "name": "Aparcamiento para residentes. Joaquín María López",
    "lng": -3.7145867743039878,
    "url": "/aparcamientos/13529",
    "lat": 40.43761436823094
  },
  {
    "name": "Aparcamiento para residentes. Josep Pla",
    "lng": -3.677431988836071,
    "url": "/aparcamientos/63334",
    "lat": 40.4420542860285
  },
  {
    "name": "Aparcamiento para residentes. José Abascal",
    "lng": -3.6922825693729613,
    "url": "/aparcamientos/7471768",
    "lat": 40.43796630480829
  },
  {
    "name": "Aparcamiento para residentes. José Cadalso",
    "lng": -3.767482193237478,
    "url": "/aparcamientos/13526",
    "lat": 40.376653486409225
  },
  {
    "name": "Aparcamiento para residentes. José del Hierro",
    "lng": -3.646774990120219,
    "url": "/aparcamientos/13556",
    "lat": 40.43842806737558
  },
  {
    "name": "Aparcamiento para residentes. José Luis Arrese",
    "lng": -3.655462029294998,
    "url": "/aparcamientos/13578",
    "lat": 40.421144850524335
  },
  {
    "name": "Aparcamiento para residentes. Juan de Vera",
    "lng": -3.6925495357594427,
    "url": "/aparcamientos/13579",
    "lat": 40.39617174301425
  },
  {
    "name": "Aparcamiento para residentes. Juan Esplandiú",
    "lng": -3.6663688108783856,
    "url": "/aparcamientos/7432674",
    "lat": 40.415487879730144
  },
  {
    "name": "Aparcamiento para residentes. Juan Francisco Luján I",
    "lng": -3.6506252104762997,
    "url": "/aparcamientos/13541",
    "lat": 40.403613502988044
  },
  {
    "name": "Aparcamiento para residentes. Juan Francisco Luján II",
    "lng": -3.6477107911706854,
    "url": "/aparcamientos/17452",
    "lat": 40.40200823124863
  },
  {
    "name": "Aparcamiento para residentes. Juan Hurtado de Mendoza",
    "lng": -3.6881990113147074,
    "url": "/aparcamientos/13505",
    "lat": 40.45954021058541
  },
  {
    "name": "Aparcamiento para residentes. Juan Ramón Jiménez",
    "lng": -3.68774686493202,
    "url": "/aparcamientos/5556588",
    "lat": 40.4603086651127
  },
  {
    "name": "Aparcamiento para residentes. Lagasca",
    "lng": -3.684165438137451,
    "url": "/aparcamientos/81768",
    "lat": 40.43513174338273
  },
  {
    "name": "Aparcamiento para residentes. Lardero",
    "lng": -3.610828352314449,
    "url": "/aparcamientos/13580",
    "lat": 40.4101369517756
  },
  {
    "name": "Aparcamiento para residentes. Maldonado",
    "lng": -3.6770646901575432,
    "url": "/aparcamientos/13581",
    "lat": 40.43365102378919
  },
  {
    "name": "Aparcamiento para residentes. Manizales",
    "lng": -3.63736019255502,
    "url": "/aparcamientos/13582",
    "lat": 40.47401185962897
  },
  {
    "name": "Aparcamiento para residentes. Manuel Noya",
    "lng": -3.712576124964454,
    "url": "/aparcamientos/24122",
    "lat": 40.388977935330644
  },
  {
    "name": "Aparcamiento para residentes. Marcos de Orueta",
    "lng": -3.6856211959935283,
    "url": "/aparcamientos/13583",
    "lat": 40.485564403816525
  },
  {
    "name": "Aparcamiento para residentes. Marqués de Corbera I",
    "lng": -3.657000749062221,
    "url": "/aparcamientos/13585",
    "lat": 40.42179377723586
  },
  {
    "name": "Aparcamiento para residentes. Marqués de Corbera II",
    "lng": -3.6494052531918317,
    "url": "/aparcamientos/13584",
    "lat": 40.42749437245121
  },
  {
    "name": "Aparcamiento para residentes. Marqués de Samaranch",
    "lng": -3.7173807221939192,
    "url": "/aparcamientos/4831164",
    "lat": 40.40761501410649
  },
  {
    "name": "Aparcamiento para residentes. Marqués de Suances",
    "lng": -3.623407728129046,
    "url": "/aparcamientos/36275",
    "lat": 40.44375465057725
  },
  {
    "name": "Aparcamiento para residentes. Marqués de Zafra",
    "lng": -3.6613711705578993,
    "url": "/aparcamientos/13490",
    "lat": 40.425111214332105
  },
  {
    "name": "Aparcamiento para residentes. Marroquina",
    "lng": -3.646974615049872,
    "url": "/aparcamientos/13521",
    "lat": 40.408814206064434
  },
  {
    "name": "Aparcamiento para residentes. Martín de Alzaga",
    "lng": -3.716190674909368,
    "url": "/aparcamientos/24125",
    "lat": 40.46319897466814
  },
  {
    "name": "Aparcamiento para residentes. Matilde Gayo",
    "lng": -3.7031934079632545,
    "url": "/aparcamientos/24127",
    "lat": 40.38971105596928
  },
  {
    "name": "Aparcamiento para residentes. Melchor Fernández Almagro",
    "lng": -3.7037690319053382,
    "url": "/aparcamientos/46136",
    "lat": 40.475491425888734
  },
  {
    "name": "Aparcamiento para residentes. Menasalbas",
    "lng": -3.6963475368076857,
    "url": "/aparcamientos/13531",
    "lat": 40.36221164246223
  },
  {
    "name": "Aparcamiento para residentes. Menorca",
    "lng": -3.6763886844447997,
    "url": "/aparcamientos/183550",
    "lat": 40.419132414660844
  },
  {
    "name": "Aparcamiento para residentes. Mercedes Arteaga",
    "lng": -3.722422024464285,
    "url": "/aparcamientos/13586",
    "lat": 40.39191686458105
  },
  {
    "name": "Aparcamiento para residentes. Miguel Angel",
    "lng": -3.691160938098677,
    "url": "/aparcamientos/81792",
    "lat": 40.43666670909019
  },
  {
    "name": "Aparcamiento para residentes. Mirabel",
    "lng": -3.7809392216852453,
    "url": "/aparcamientos/13508",
    "lat": 40.37804988929718
  },
  {
    "name": "Aparcamiento para residentes. Misterios",
    "lng": -3.6390967056081855,
    "url": "/aparcamientos/13587",
    "lat": 40.43816446397422
  },
  {
    "name": "Aparcamiento para residentes. Mondariz",
    "lng": -3.7057452570234384,
    "url": "/aparcamientos/13588",
    "lat": 40.47832620355215
  },
  {
    "name": "Aparcamiento para residentes. Montevideo",
    "lng": -3.6966173957684987,
    "url": "/aparcamientos/13589",
    "lat": 40.450129445324265
  },
  {
    "name": "Aparcamiento para residentes. Moralzarzal",
    "lng": -3.7123869254984436,
    "url": "/aparcamientos/81770",
    "lat": 40.49390694682075
  },
  {
    "name": "Aparcamiento para residentes. Moratalaz",
    "lng": -3.642005637795663,
    "url": "/aparcamientos/13540",
    "lat": 40.40929235748528
  },
  {
    "name": "Aparcamiento para residentes. Müller",
    "lng": -3.697019991313314,
    "url": "/aparcamientos/13516",
    "lat": 40.463982833786666
  },
  {
    "name": "Aparcamiento para residentes. Narváez",
    "lng": -3.676179378123513,
    "url": "/aparcamientos/13497",
    "lat": 40.42177328929485
  },
  {
    "name": "Aparcamiento para residentes. Navalmoral de la Mata",
    "lng": -3.776694134591487,
    "url": "/aparcamientos/81793",
    "lat": 40.37768208008626
  },
  {
    "name": "Aparcamiento para residentes. Niño Jesús",
    "lng": -3.6753041315851216,
    "url": "/aparcamientos/13590",
    "lat": 40.410868443000226
  },
  {
    "name": "Aparcamiento para residentes. Nuestra Señora de Gracia",
    "lng": -3.640382300925949,
    "url": "/aparcamientos/13519",
    "lat": 40.40215716063388
  },
  {
    "name": "Aparcamiento para residentes. Ofelia Nieto",
    "lng": -3.7093194218803034,
    "url": "/aparcamientos/13640",
    "lat": 40.461457569752326
  },
  {
    "name": "Aparcamiento para residentes. Oporto",
    "lng": -3.7250854837848895,
    "url": "/aparcamientos/24129",
    "lat": 40.390873159003725
  },
  {
    "name": "Aparcamiento para residentes. Ortega y Gasset I",
    "lng": -3.6827939887666843,
    "url": "/aparcamientos/13543",
    "lat": 40.430094797919104
  },
  {
    "name": "Aparcamiento para residentes. Ortega y Gasset II",
    "lng": -3.6780407406414577,
    "url": "/aparcamientos/13544",
    "lat": 40.42987952977711
  },
  {
    "name": "Aparcamiento para residentes. Ortega y Gasset III",
    "lng": -3.6806150060871925,
    "url": "/aparcamientos/13549",
    "lat": 40.43029683639009
  },
  {
    "name": "Aparcamiento para residentes. Ortega y Gasset IV",
    "lng": -3.684329518611805,
    "url": "/aparcamientos/13553",
    "lat": 40.43038301657138
  },
  {
    "name": "Aparcamiento para residentes. Ortiz Campos",
    "lng": -3.7072468134338923,
    "url": "/aparcamientos/167691",
    "lat": 40.385235846277794
  },
  {
    "name": "Aparcamiento para residentes. Osa de la Vega",
    "lng": -3.7737671808919457,
    "url": "/aparcamientos/13510",
    "lat": 40.375143122825484
  },
  {
    "name": "Aparcamiento para residentes. Pablo Casals",
    "lng": -3.7238765894181416,
    "url": "/aparcamientos/13628",
    "lat": 40.41221418658154
  },
  {
    "name": "Aparcamiento para residentes. Pablo Iglesias I",
    "lng": -3.7063299914141563,
    "url": "/aparcamientos/13591",
    "lat": 40.44517862138331
  },
  {
    "name": "Aparcamiento para residentes. Pablo Iglesias II",
    "lng": -3.709222086628092,
    "url": "/aparcamientos/13517",
    "lat": 40.448836583456306
  },
  {
    "name": "Aparcamiento para residentes. Pan y Toros",
    "lng": -3.6949856545050537,
    "url": "/aparcamientos/13557",
    "lat": 40.36033692617683
  },
  {
    "name": "Aparcamiento para residentes. Panamá",
    "lng": -3.688390425258081,
    "url": "/aparcamientos/81799",
    "lat": 40.457494031619916
  },
  {
    "name": "Aparcamiento para residentes. Parque de Santa María",
    "lng": -3.6406233923237314,
    "url": "/aparcamientos/63333",
    "lat": 40.47725506619179
  },
  {
    "name": "Aparcamiento para residentes. Paseo de Pintor Rosales I",
    "lng": -3.720651954392569,
    "url": "/aparcamientos/13619",
    "lat": 40.42812626338584
  },
  {
    "name": "Aparcamiento para residentes. Paseo de Pintor Rosales III",
    "lng": -3.721675597515291,
    "url": "/aparcamientos/13637",
    "lat": 40.427939697492924
  },
  {
    "name": "Aparcamiento para residentes. Pedro Yagüe",
    "lng": -3.707784721668437,
    "url": "/aparcamientos/13592",
    "lat": 40.39272811310567
  },
  {
    "name": "Aparcamiento para residentes. Pez Volador",
    "lng": -3.6652019753895515,
    "url": "/aparcamientos/13545",
    "lat": 40.414296394398114
  },
  {
    "name": "Aparcamiento para residentes. Peñuelas",
    "lng": -3.705365746147262,
    "url": "/aparcamientos/24131",
    "lat": 40.40255377348087
  },
  {
    "name": "Aparcamiento para residentes. Pico de los Artilleros",
    "lng": -3.6394755525698588,
    "url": "/aparcamientos/13542",
    "lat": 40.40720726405869
  },
  {
    "name": "Aparcamiento para residentes. Pilar de Zaragoza",
    "lng": -3.6711302937521397,
    "url": "/aparcamientos/81802",
    "lat": 40.43561355880132
  },
  {
    "name": "Aparcamiento para residentes. Platón",
    "lng": -3.652177539229519,
    "url": "/aparcamientos/13595",
    "lat": 40.44233465735811
  },
  {
    "name": "Aparcamiento para residentes. Poeta Leopoldo de Luis",
    "lng": -3.704634105906319,
    "url": "/aparcamientos/5298038",
    "lat": 40.45328805539019
  },
  {
    "name": "Aparcamiento para residentes. Pradillo",
    "lng": -3.671618277009419,
    "url": "/aparcamientos/13488",
    "lat": 40.44910622626739
  },
  {
    "name": "Aparcamiento para residentes. Pradillo II",
    "lng": -3.6710058129264764,
    "url": "/aparcamientos/7401268",
    "lat": 40.44918185512993
  },
  {
    "name": "Aparcamiento para residentes. Puerto Monasterio",
    "lng": -3.663852045873069,
    "url": "/aparcamientos/13596",
    "lat": 40.39446617270601
  },
  {
    "name": "Aparcamiento para residentes. Pérez Pillado",
    "lng": -3.7071196707992047,
    "url": "/aparcamientos/13617",
    "lat": 40.43951614014729
  },
  {
    "name": "Aparcamiento para residentes. Pío Baroja I",
    "lng": -3.672941578351561,
    "url": "/aparcamientos/13593",
    "lat": 40.41506242077731
  },
  {
    "name": "Aparcamiento para residentes. Pío Baroja II",
    "lng": -3.6377064713535683,
    "url": "/aparcamientos/13594",
    "lat": 40.403325112237404
  },
  {
    "name": "Aparcamiento para residentes. Rafael Finat",
    "lng": -3.7642871215174827,
    "url": "/aparcamientos/13509",
    "lat": 40.38371073816265
  },
  {
    "name": "Aparcamiento para residentes. Rafael Salgado",
    "lng": -3.6878618457591212,
    "url": "/aparcamientos/13506",
    "lat": 40.45423592494194
  },
  {
    "name": "Aparcamiento para residentes. Rafaela Ybarra",
    "lng": -3.7111687792815276,
    "url": "/aparcamientos/24132",
    "lat": 40.38063517341089
  },
  {
    "name": "Aparcamiento para residentes. Ramales",
    "lng": -3.7129905271195467,
    "url": "/aparcamientos/183557",
    "lat": 40.417092659885896
  },
  {
    "name": "Aparcamiento para residentes. Ramos Carrión",
    "lng": -3.668298074072127,
    "url": "/aparcamientos/13599",
    "lat": 40.44607141622334
  },
  {
    "name": "Aparcamiento para residentes. Ramón Gómez de la Serna",
    "lng": -3.7244038246970588,
    "url": "/aparcamientos/13597",
    "lat": 40.48330982107021
  },
  {
    "name": "Aparcamiento para residentes. Redondela",
    "lng": -3.708947586113176,
    "url": "/aparcamientos/13598",
    "lat": 40.47769399639783
  },
  {
    "name": "Aparcamiento para residentes. Reina Victoria",
    "lng": -3.710300419035648,
    "url": "/aparcamientos/81827",
    "lat": 40.447091226852045
  },
  {
    "name": "Aparcamiento para residentes. Ribadavia",
    "lng": -3.7051923830735447,
    "url": "/aparcamientos/13618",
    "lat": 40.4728431267083
  },
  {
    "name": "Aparcamiento para residentes. Ribadeo",
    "lng": -3.710324683665145,
    "url": "/aparcamientos/13491",
    "lat": 40.47738824582847
  },
  {
    "name": "Aparcamiento para residentes. Rutilio Gacís",
    "lng": -3.6955547777769118,
    "url": "/aparcamientos/13484",
    "lat": 40.39392846187197
  },
  {
    "name": "Aparcamiento para residentes. Ríos Rosas",
    "lng": -3.7020503958373716,
    "url": "/aparcamientos/81829",
    "lat": 40.441862351880786
  },
  {
    "name": "Aparcamiento para residentes. San Amaro",
    "lng": -3.697042370060708,
    "url": "/aparcamientos/13600",
    "lat": 40.45359534488958
  },
  {
    "name": "Aparcamiento para residentes. San Antonio de la Florida",
    "lng": -3.7267053522879783,
    "url": "/aparcamientos/13638",
    "lat": 40.42536764645908
  },
  {
    "name": "Aparcamiento para residentes. San Aureliano",
    "lng": -3.7157159732461307,
    "url": "/aparcamientos/13601",
    "lat": 40.34275979067738
  },
  {
    "name": "Aparcamiento para residentes. San Cipriano",
    "lng": -3.601675154549265,
    "url": "/aparcamientos/81830",
    "lat": 40.40401372127027
  },
  {
    "name": "Aparcamiento para residentes. San Francisco de Sales I",
    "lng": -3.713907903523528,
    "url": "/aparcamientos/13602",
    "lat": 40.4414293715104
  },
  {
    "name": "Aparcamiento para residentes. San Francisco de Sales II",
    "lng": -3.7141130129979443,
    "url": "/aparcamientos/81831",
    "lat": 40.44186954568839
  },
  {
    "name": "Aparcamiento para residentes. San Germán",
    "lng": -3.69747502964215,
    "url": "/aparcamientos/13603",
    "lat": 40.45779993088596
  },
  {
    "name": "Aparcamiento para residentes. San Juan de la Cruz",
    "lng": -3.693906999649197,
    "url": "/aparcamientos/13621",
    "lat": 40.44114575525758
  },
  {
    "name": "Aparcamiento para residentes. San Juan de la Salle",
    "lng": -3.6891952944971687,
    "url": "/aparcamientos/81833",
    "lat": 40.45084961018325
  },
  {
    "name": "Aparcamiento para residentes. San Lamberto",
    "lng": -3.6506275116219804,
    "url": "/aparcamientos/13604",
    "lat": 40.422208199253056
  },
  {
    "name": "Aparcamiento para residentes. Sancho de Córdoba",
    "lng": -3.653055244559577,
    "url": "/aparcamientos/13622",
    "lat": 40.4075187512468
  },
  {
    "name": "Aparcamiento para residentes. Santa Cruz",
    "lng": -3.705162347755471,
    "url": "/aparcamientos/81836",
    "lat": 40.41468120182588
  },
  {
    "name": "Aparcamiento para residentes. Santa Eugenia",
    "lng": -3.608459149580722,
    "url": "/aparcamientos/13555",
    "lat": 40.38131130575197
  },
  {
    "name": "Aparcamiento para residentes. Santa Susana",
    "lng": -3.6479305874314982,
    "url": "/aparcamientos/13496",
    "lat": 40.48017828214144
  },
  {
    "name": "Aparcamiento para residentes. Santa Virgilia",
    "lng": -3.6430212857319466,
    "url": "/aparcamientos/13605",
    "lat": 40.47633184455615
  },
  {
    "name": "Aparcamiento para residentes. Santander",
    "lng": -3.7102932755491707,
    "url": "/aparcamientos/81838",
    "lat": 40.444172355989295
  },
  {
    "name": "Aparcamiento para residentes. Santo Domingo de Silos",
    "lng": -3.6876731819953954,
    "url": "/aparcamientos/13507",
    "lat": 40.45076858535646
  },
  {
    "name": "Aparcamiento para residentes. Sarriá",
    "lng": -3.7148023465954534,
    "url": "/aparcamientos/24138",
    "lat": 40.475766056159074
  },
  {
    "name": "Aparcamiento para residentes. Somontín",
    "lng": -3.6590265639800315,
    "url": "/aparcamientos/81841",
    "lat": 40.477151596340875
  },
  {
    "name": "Aparcamiento para residentes. Sor Ángela de la Cruz",
    "lng": -3.6956455808859126,
    "url": "/aparcamientos/13492",
    "lat": 40.459955092735676
  },
  {
    "name": "Aparcamiento para residentes. Tembleque",
    "lng": -3.764928439225643,
    "url": "/aparcamientos/13511",
    "lat": 40.39145429571687
  },
  {
    "name": "Aparcamiento para residentes. Tomelloso",
    "lng": -3.6979180724386005,
    "url": "/aparcamientos/13547",
    "lat": 40.38202222447678
  },
  {
    "name": "Aparcamiento para residentes. Uruguay",
    "lng": -3.6735603027224646,
    "url": "/aparcamientos/13489",
    "lat": 40.45463546024847
  },
  {
    "name": "Aparcamiento para residentes. Valladolid",
    "lng": -3.731320544485255,
    "url": "/aparcamientos/13559",
    "lat": 40.430266476138364
  },
  {
    "name": "Aparcamiento para residentes. Valle de Suchil",
    "lng": -3.707683985900638,
    "url": "/aparcamientos/24141",
    "lat": 40.43261178393764
  },
  {
    "name": "Aparcamiento para residentes. Valparaíso",
    "lng": -3.6803238974977317,
    "url": "/aparcamientos/13523",
    "lat": 40.45521747089742
  },
  {
    "name": "Aparcamiento para residentes. Vasconcelos",
    "lng": -3.686711391241331,
    "url": "/aparcamientos/13623",
    "lat": 40.47097243608375
  },
  {
    "name": "Aparcamiento para residentes. Vicente Gaceo",
    "lng": -3.688211148150712,
    "url": "/aparcamientos/13513",
    "lat": 40.4734409803006
  },
  {
    "name": "Aparcamiento para residentes. Villa Rosa",
    "lng": -3.6309383657037775,
    "url": "/aparcamientos/13606",
    "lat": 40.46725432234968
  },
  {
    "name": "Aparcamiento para residentes. Villacarlos",
    "lng": -3.60680746518132,
    "url": "/aparcamientos/13607",
    "lat": 40.405986918268454
  },
  {
    "name": "Aparcamiento para residentes. Villaescusa",
    "lng": -3.630058923275035,
    "url": "/aparcamientos/13608",
    "lat": 40.41982661310281
  },
  {
    "name": "Aparcamiento para residentes. Villamanín I",
    "lng": -3.753230652462212,
    "url": "/aparcamientos/13609",
    "lat": 40.40645909050053
  },
  {
    "name": "Aparcamiento para residentes. Villamanín II",
    "lng": -3.7544735496324453,
    "url": "/aparcamientos/13528",
    "lat": 40.405892426151894
  },
  {
    "name": "Aparcamiento para residentes. Virgen de Aránzazu",
    "lng": -3.689784149213909,
    "url": "/aparcamientos/81866",
    "lat": 40.48651259805486
  },
  {
    "name": "Aparcamiento para residentes. Virgen de La Alegría",
    "lng": -3.657295067306364,
    "url": "/aparcamientos/13610",
    "lat": 40.433864217378236
  },
  {
    "name": "Aparcamiento para residentes. Virgen de La Roca I",
    "lng": -3.657708192601482,
    "url": "/aparcamientos/13612",
    "lat": 40.43512313182771
  },
  {
    "name": "Aparcamiento para residentes. Virgen de La Roca II",
    "lng": -3.657674667298404,
    "url": "/aparcamientos/13613",
    "lat": 40.435312512147966
  },
  {
    "name": "Aparcamiento para residentes. Virgen de Lourdes",
    "lng": -3.6578573055759387,
    "url": "/aparcamientos/13639",
    "lat": 40.43590606878259
  },
  {
    "name": "Aparcamiento para residentes. Virgen del Puerto",
    "lng": -3.7209782941840133,
    "url": "/aparcamientos/13611",
    "lat": 40.413421489994384
  },
  {
    "name": "Aparcamiento para Residentes. Virgen del Romero",
    "lng": -3.6512822080388543,
    "url": "/aparcamientos/7397971",
    "lat": 40.438754114417975
  },
  {
    "name": "Aparcamiento para residentes. Vista Alegre",
    "lng": -3.7377818777393292,
    "url": "/aparcamientos/13614",
    "lat": 40.386090109968336
  },
  {
    "name": "Aparcamiento para residentes. Vía Carpetana",
    "lng": -3.7443700438845036,
    "url": "/aparcamientos/61831",
    "lat": 40.3884352927236
  },
  {
    "name": "Aparcamiento público. Descalzas",
    "lng": -3.706306013191402,
    "url": "/aparcamientos/13473",
    "lat": 40.41809765692244
  },
  {
    "name": "Aparcamiento público. Plaza de España",
    "lng": -3.7116577340508523,
    "url": "/aparcamientos/13463",
    "lat": 40.42372251184839
  }
]