markers = [
  {
    "lat": 40.426687899755734,
    "url": "/aparcamientos/13470",
    "lng": -3.6996173701222492,
    "name": "Aparcamiento mixto. Arquitecto Ribera"
  },
  {
    "lat": 40.43886083125741,
    "url": "/aparcamientos/59060",
    "lng": -3.6766217383743345,
    "name": "Aparcamiento mixto. Avenida de América (intercambiador)"
  },
  {
    "lat": 40.45610834965894,
    "url": "/aparcamientos/13475",
    "lng": -3.694131675088486,
    "name": "Aparcamiento mixto. Brasil"
  },
  {
    "lat": 40.406792648617134,
    "url": "/aparcamientos/183747",
    "lng": -3.7046086019457167,
    "name": "Aparcamiento mixto. Casino de la Reina"
  },
  {
    "lat": 40.44938567948415,
    "url": "/aparcamientos/13477",
    "lng": -3.7019164121880888,
    "name": "Aparcamiento mixto. Condesa de Gavia"
  },
  {
    "lat": 40.444421820483264,
    "url": "/aparcamientos/24103",
    "lng": -3.666902094780133,
    "name": "Aparcamiento mixto. Corazón de María II"
  },
  {
    "lat": 40.45852127134047,
    "url": "/aparcamientos/81736",
    "lng": -3.78317943069732,
    "name": "Aparcamiento mixto. Corona Boreal"
  },
  {
    "lat": 40.40531540835356,
    "url": "/aparcamientos/183748",
    "lng": -3.683557034656531,
    "name": "Aparcamiento mixto. Daoíz y Velarde"
  },
  {
    "lat": 40.434415601006386,
    "url": "/aparcamientos/44724",
    "lng": -3.675728293375598,
    "name": "Aparcamiento mixto. Díaz Porlier"
  },
  {
    "lat": 40.40581270738191,
    "url": "/aparcamientos/36269",
    "lng": -3.652048809515808,
    "name": "Aparcamiento mixto. Encuentro"
  },
  {
    "lat": 40.42422175692137,
    "url": "/aparcamientos/13464",
    "lng": -3.673433652213169,
    "name": "Aparcamiento mixto. Felipe II"
  },
  {
    "lat": 40.42948845687032,
    "url": "/aparcamientos/13462",
    "lng": -3.7027941027177986,
    "name": "Aparcamiento mixto. Fuencarral"
  },
  {
    "lat": 40.45673936450418,
    "url": "/aparcamientos/13515",
    "lng": -3.694067405537416,
    "name": "Aparcamiento mixto. General Yagüe"
  },
  {
    "lat": 40.448394729978006,
    "url": "/aparcamientos/36270",
    "lng": -3.7033919552673127,
    "name": "Aparcamiento mixto. Hernani"
  },
  {
    "lat": 40.41444016371457,
    "url": "/aparcamientos/13459",
    "lng": -3.70332112917586,
    "name": "Aparcamiento mixto. Jacinto Benavente"
  },
  {
    "lat": 40.46451060463543,
    "url": "/aparcamientos/13479",
    "lng": -3.6916467875121377,
    "name": "Aparcamiento mixto. José Castán Tobeñas"
  },
  {
    "lat": 40.43046723981028,
    "url": "/aparcamientos/6143690",
    "lng": -3.6792137901324056,
    "name": "Aparcamiento mixto. Marqués de Salamanca"
  },
  {
    "lat": 40.4402052387976,
    "url": "/aparcamientos/182188",
    "lng": -3.625049272913964,
    "name": "Aparcamiento mixto. Miguel Yuste"
  },
  {
    "lat": 40.45973534025835,
    "url": "/aparcamientos/5517342",
    "lng": -3.6962330375922363,
    "name": "Aparcamiento mixto. Orense"
  },
  {
    "lat": 40.417632509561116,
    "url": "/aparcamientos/33440",
    "lng": -3.7116407088004757,
    "name": "Aparcamiento mixto. Plaza de Oriente"
  },
  {
    "lat": 40.45362846199134,
    "url": "/aparcamientos/36271",
    "lng": -3.6975262417380064,
    "name": "Aparcamiento mixto. Presidente Carmona"
  },
  {
    "lat": 40.42054469225109,
    "url": "/aparcamientos/13476",
    "lng": -3.691974283683488,
    "name": "Aparcamiento mixto. Recoletos"
  },
  {
    "lat": 40.45887037458626,
    "url": "/aparcamientos/24193",
    "lng": -3.6765275895176677,
    "name": "Aparcamiento mixto. República Dominicana"
  },
  {
    "lat": 40.40870074627349,
    "url": "/aparcamientos/81828",
    "lng": -3.6762488802382896,
    "name": "Aparcamiento mixto. Reyes Magos"
  },
  {
    "lat": 40.43432235224971,
    "url": "/aparcamientos/167692",
    "lng": -3.6700799322371056,
    "name": "Aparcamiento mixto. San Cayetano"
  },
  {
    "lat": 40.40917205238472,
    "url": "/aparcamientos/19053",
    "lng": -3.6940145592988043,
    "name": "Aparcamiento mixto. Sánchez Bustillo"
  },
  {
    "lat": 40.43289700914247,
    "url": "/aparcamientos/7416748",
    "lng": -3.6857697780390155,
    "name": "Aparcamiento mixto. Serrano I"
  },
  {
    "lat": 40.43059379257075,
    "url": "/aparcamientos/7417028",
    "lng": -3.688281097618061,
    "name": "Aparcamiento mixto. Serrano II"
  },
  {
    "lat": 40.42446775888825,
    "url": "/aparcamientos/7417052",
    "lng": -3.6897747066093993,
    "name": "Aparcamiento mixto. Serrano III"
  },
  {
    "lat": 40.41780383567921,
    "url": "/aparcamientos/13460",
    "lng": -3.6998082261071747,
    "name": "Aparcamiento mixto. Sevilla"
  },
  {
    "lat": 40.4209564450911,
    "url": "/aparcamientos/52114",
    "lng": -3.699899832865304,
    "name": "Aparcamiento mixto. Vázquez de Mella"
  },
  {
    "lat": 40.427203787185476,
    "url": "/aparcamientos/13458",
    "lng": -3.6841676172873936,
    "name": "Aparcamiento mixto. Velázquez - Ayala"
  },
  {
    "lat": 40.4243649253884,
    "url": "/aparcamientos/13457",
    "lng": -3.684339253399854,
    "name": "Aparcamiento mixto. Velázquez - Jorge Juan"
  },
  {
    "lat": 40.43992277144076,
    "url": "/aparcamientos/183607",
    "lng": -3.656505118007155,
    "name": "Aparcamiento mixto. Verdaguer y García"
  },
  {
    "lat": 40.42645376188213,
    "url": "/aparcamientos/8087180",
    "lng": -3.7010885254757215,
    "name": "Aparcamiento para residentes del Centro Polivalente Barceló"
  },
  {
    "lat": 40.48659572222757,
    "url": "/aparcamientos/4829668",
    "lng": -3.701418983284407,
    "name": "Aparcamiento para residentes.  Ginzo de Limia"
  },
  {
    "lat": 40.47084197155435,
    "url": "/aparcamientos/24139",
    "lng": -3.7214386928759,
    "name": "Aparcamiento para residentes.  Valderromán"
  },
  {
    "lat": 40.46425800063576,
    "url": "/aparcamientos/67711",
    "lng": -3.71974049893289,
    "name": "Aparcamiento para residentes. Aguilar de Campóo"
  },
  {
    "lat": 40.39551876450337,
    "url": "/aparcamientos/13560",
    "lng": -3.700743991187278,
    "name": "Aparcamiento para residentes. Aguilón"
  },
  {
    "lat": 40.40768707324583,
    "url": "/aparcamientos/81690",
    "lng": -3.7041936561722837,
    "name": "Aparcamiento para residentes. Agustín Lara"
  },
  {
    "lat": 40.41157894870162,
    "url": "/aparcamientos/7439839",
    "lng": -3.6937682064196955,
    "name": "Aparcamiento para residentes. Alameda"
  },
  {
    "lat": 40.4170524678261,
    "url": "/aparcamientos/24136",
    "lng": -3.6684469760596947,
    "name": "Aparcamiento para residentes. Alcalde Sáinz de Baranda"
  },
  {
    "lat": 40.47304495112221,
    "url": "/aparcamientos/17790",
    "lng": -3.7031182584981632,
    "name": "Aparcamiento para residentes. Alcazaba"
  },
  {
    "lat": 40.438588067952956,
    "url": "/aparcamientos/81696",
    "lng": -3.699740715636031,
    "name": "Aparcamiento para residentes. Alonso Cano"
  },
  {
    "lat": 40.375103173529624,
    "url": "/aparcamientos/13561",
    "lng": -3.6188048038957525,
    "name": "Aparcamiento para residentes. Altos de Lillo"
  },
  {
    "lat": 40.392629719913494,
    "url": "/aparcamientos/19060",
    "lng": -3.7588147232323994,
    "name": "Aparcamiento para residentes. Aluche"
  },
  {
    "lat": 40.428900028803746,
    "url": "/aparcamientos/13494",
    "lng": -3.662068474281374,
    "name": "Aparcamiento para residentes. América Española"
  },
  {
    "lat": 40.45907010700822,
    "url": "/aparcamientos/5753573",
    "lng": -3.6431161496299156,
    "name": "Aparcamiento para residentes. Andorra II"
  },
  {
    "lat": 40.374404666864585,
    "url": "/aparcamientos/13552",
    "lng": -3.668237382541929,
    "name": "Aparcamiento para residentes. Andévalo"
  },
  {
    "lat": 40.46205383839361,
    "url": "/aparcamientos/13514",
    "lng": -3.6942046665141532,
    "name": "Aparcamiento para residentes. Angel Carbajo"
  },
  {
    "lat": 40.39694383653292,
    "url": "/aparcamientos/13548",
    "lng": -3.71373239872531,
    "name": "Aparcamiento para residentes. Antonio López"
  },
  {
    "lat": 40.46518270295288,
    "url": "/aparcamientos/13562",
    "lng": -3.7202575723897997,
    "name": "Aparcamiento para residentes. Antonio Machado"
  },
  {
    "lat": 40.41674114835766,
    "url": "/aparcamientos/13554",
    "lng": -3.6907566185159073,
    "name": "Aparcamiento para residentes. Antonio Maura"
  },
  {
    "lat": 40.4095614372985,
    "url": "/aparcamientos/24093",
    "lng": -3.6422203378641598,
    "name": "Aparcamiento para residentes. Antonio Mena"
  },
  {
    "lat": 40.428652595625735,
    "url": "/aparcamientos/24088",
    "lng": -3.659649292346212,
    "name": "Aparcamiento para residentes. Antonio Pirala"
  },
  {
    "lat": 40.400053390124974,
    "url": "/aparcamientos/24095",
    "lng": -3.707637536688371,
    "name": "Aparcamiento para residentes. Arganda"
  },
  {
    "lat": 40.390341693089944,
    "url": "/aparcamientos/24096",
    "lng": -3.6572487652878456,
    "name": "Aparcamiento para residentes. Arroyo del Olivar"
  },
  {
    "lat": 40.4047325569571,
    "url": "/aparcamientos/13537",
    "lng": -3.6502824390198167,
    "name": "Aparcamiento para residentes. Arroyo Fontarrón"
  },
  {
    "lat": 40.40975675657818,
    "url": "/aparcamientos/13536",
    "lng": -3.6555754577111452,
    "name": "Aparcamiento para residentes. Arroyo Media Legua"
  },
  {
    "lat": 40.40882236801765,
    "url": "/aparcamientos/13626",
    "lng": -3.643898652734279,
    "name": "Aparcamiento para residentes. Augusto González Besada"
  },
  {
    "lat": 40.464695605273214,
    "url": "/aparcamientos/170742",
    "lng": -3.711629983272826,
    "name": "Aparcamiento para residentes. Azuaga"
  },
  {
    "lat": 40.442530814084584,
    "url": "/aparcamientos/13633",
    "lng": -3.6636171675129683,
    "name": "Aparcamiento para residentes. Baviera"
  },
  {
    "lat": 40.476548210358075,
    "url": "/aparcamientos/13501",
    "lng": -3.7136073064656374,
    "name": "Aparcamiento para residentes. Bañeza"
  },
  {
    "lat": 40.469910833486516,
    "url": "/aparcamientos/81700",
    "lng": -3.644210441293518,
    "name": "Aparcamiento para residentes. Belianes"
  },
  {
    "lat": 40.43320868688477,
    "url": "/aparcamientos/21182",
    "lng": -3.711710574902686,
    "name": "Aparcamiento para residentes. Blasco de Garay"
  },
  {
    "lat": 40.35723045218769,
    "url": "/aparcamientos/13532",
    "lng": -3.6947064479324707,
    "name": "Aparcamiento para residentes. Bohemios"
  },
  {
    "lat": 40.43756223469774,
    "url": "/aparcamientos/13495",
    "lng": -3.6659853858211267,
    "name": "Aparcamiento para residentes. Boston"
  },
  {
    "lat": 40.43934359051524,
    "url": "/aparcamientos/13530",
    "lng": -3.7043941647283263,
    "name": "Aparcamiento para residentes. Bravo Murillo"
  },
  {
    "lat": 40.43760037141018,
    "url": "/aparcamientos/13563",
    "lng": -3.6624839501188746,
    "name": "Aparcamiento para residentes. Brescia"
  },
  {
    "lat": 40.43937734548181,
    "url": "/aparcamientos/13564",
    "lng": -3.662100501710677,
    "name": "Aparcamiento para residentes. Bristol"
  },
  {
    "lat": 40.43935554500995,
    "url": "/aparcamientos/13565",
    "lng": -3.6627605793667137,
    "name": "Aparcamiento para residentes. Bruselas"
  },
  {
    "lat": 40.469171734914404,
    "url": "/aparcamientos/81706",
    "lng": -3.661815011944474,
    "name": "Aparcamiento para residentes. Burgo de Osma"
  },
  {
    "lat": 40.40960189327877,
    "url": "/aparcamientos/183737",
    "lng": -3.7033886150712214,
    "name": "Aparcamiento para residentes. Cabestreros"
  },
  {
    "lat": 40.46244853281621,
    "url": "/aparcamientos/13566",
    "lng": -3.6414852788262566,
    "name": "Aparcamiento para residentes. Calanda"
  },
  {
    "lat": 40.395762528588946,
    "url": "/aparcamientos/13499",
    "lng": -3.756422538379352,
    "name": "Aparcamiento para residentes. Camarena"
  },
  {
    "lat": 40.4065332387703,
    "url": "/aparcamientos/13539",
    "lng": -3.642427258036616,
    "name": "Aparcamiento para residentes. Camino de los Vinateros I"
  },
  {
    "lat": 40.40705464955243,
    "url": "/aparcamientos/13538",
    "lng": -3.645861734428852,
    "name": "Aparcamiento para residentes. Camino de los Vinateros II (El Torito)"
  },
  {
    "lat": 40.380535147068926,
    "url": "/aparcamientos/13632",
    "lng": -3.7315364433760196,
    "name": "Aparcamiento para residentes. Camino Viejo de Leganés"
  },
  {
    "lat": 40.40644768286364,
    "url": "/aparcamientos/13518",
    "lng": -3.707987344713689,
    "name": "Aparcamiento para residentes. Campillo del Mundo Nuevo"
  },
  {
    "lat": 40.438607652682464,
    "url": "/aparcamientos/81710",
    "lng": -3.705412280852862,
    "name": "Aparcamiento para residentes. Canal"
  },
  {
    "lat": 40.459484932285804,
    "url": "/aparcamientos/13624",
    "lng": -3.5836170692241147,
    "name": "Aparcamiento para residentes. Cantabria"
  },
  {
    "lat": 40.434641357687326,
    "url": "/aparcamientos/81733",
    "lng": -3.6802461580883605,
    "name": "Aparcamiento para residentes. Castelló"
  },
  {
    "lat": 40.38626552987357,
    "url": "/aparcamientos/13567",
    "lng": -3.6086097642961814,
    "name": "Aparcamiento para residentes. Castrillo de Aza"
  },
  {
    "lat": 40.40378459227237,
    "url": "/aparcamientos/13533",
    "lng": -3.644204187484202,
    "name": "Aparcamiento para residentes. Cañada"
  },
  {
    "lat": 40.43293386561711,
    "url": "/aparcamientos/13636",
    "lng": -3.697677837203558,
    "name": "Aparcamiento para residentes. Chamberí"
  },
  {
    "lat": 40.47071441606703,
    "url": "/aparcamientos/81734",
    "lng": -3.6324688931507403,
    "name": "Aparcamiento para residentes. Chaparral"
  },
  {
    "lat": 40.45013336925363,
    "url": "/aparcamientos/13568",
    "lng": -3.6559086956228524,
    "name": "Aparcamiento para residentes. Cidamón"
  },
  {
    "lat": 40.444113845496815,
    "url": "/aparcamientos/13503",
    "lng": -3.668750355615286,
    "name": "Aparcamiento para residentes. Clara del Rey"
  },
  {
    "lat": 40.381116884137015,
    "url": "/aparcamientos/24099",
    "lng": -3.7504154605075706,
    "name": "Aparcamiento para residentes. Codorniz"
  },
  {
    "lat": 40.39742495168458,
    "url": "/aparcamientos/13569",
    "lng": -3.698383469338622,
    "name": "Aparcamiento para residentes. Comandante Benítez"
  },
  {
    "lat": 40.480086139201404,
    "url": "/aparcamientos/13571",
    "lng": -3.67040497840857,
    "name": "Aparcamiento para residentes. Condado de Treviño"
  },
  {
    "lat": 40.40706458224573,
    "url": "/aparcamientos/24101",
    "lng": -3.671011625643675,
    "name": "Aparcamiento para residentes. Conde de Casal / Mediterraneo"
  },
  {
    "lat": 40.44032637305066,
    "url": "/aparcamientos/13504",
    "lng": -3.6709413376148086,
    "name": "Aparcamiento para residentes. Corazón de María I"
  },
  {
    "lat": 40.47940888739177,
    "url": "/aparcamientos/13500",
    "lng": -3.658140197005035,
    "name": "Aparcamiento para residentes. Cuevas de Almanzora"
  },
  {
    "lat": 40.469797844264434,
    "url": "/aparcamientos/81737",
    "lng": -3.6353267838656484,
    "name": "Aparcamiento para residentes. Cumare"
  },
  {
    "lat": 40.47020636480525,
    "url": "/aparcamientos/183580",
    "lng": -3.714991114871764,
    "name": "Aparcamiento para residentes. Cándido Mateos"
  },
  {
    "lat": 40.40831552325078,
    "url": "/aparcamientos/13535",
    "lng": -3.6443181005580043,
    "name": "Aparcamiento para residentes. Darwin"
  },
  {
    "lat": 40.41766561139149,
    "url": "/aparcamientos/183760",
    "lng": -3.67610289078337,
    "name": "Aparcamiento para residentes. Doce de Octubre"
  },
  {
    "lat": 40.435515856536526,
    "url": "/aparcamientos/13630",
    "lng": -3.6374563613179753,
    "name": "Aparcamiento para residentes. Doctor Cirajas"
  },
  {
    "lat": 40.41486100757735,
    "url": "/aparcamientos/13551",
    "lng": -3.673493543766057,
    "name": "Aparcamiento para residentes. Doctor Laguna"
  },
  {
    "lat": 40.441852955825894,
    "url": "/aparcamientos/39871",
    "lng": -3.7153391363661976,
    "name": "Aparcamiento para residentes. Doménico Scarlatti"
  },
  {
    "lat": 40.4209426634437,
    "url": "/aparcamientos/4831001",
    "lng": -3.6656210687113555,
    "name": "Aparcamiento para residentes. Elvira"
  },
  {
    "lat": 40.46757701332538,
    "url": "/aparcamientos/24106",
    "lng": -3.63616695396661,
    "name": "Aparcamiento para residentes. Emigrantes"
  },
  {
    "lat": 40.39890743776529,
    "url": "/aparcamientos/13524",
    "lng": -3.6431678525654076,
    "name": "Aparcamiento para residentes. Encomienda de Palacios"
  },
  {
    "lat": 40.4434114032433,
    "url": "/aparcamientos/13550",
    "lng": -3.6100682055704136,
    "name": "Aparcamiento para residentes. Esfinge"
  },
  {
    "lat": 40.412886496253456,
    "url": "/aparcamientos/170634",
    "lng": -3.690552192538091,
    "name": "Aparcamiento para residentes. Espalter"
  },
  {
    "lat": 40.40267931721201,
    "url": "/aparcamientos/13558",
    "lng": -3.7054613325975816,
    "name": "Aparcamiento para residentes. Esperanza"
  },
  {
    "lat": 40.356365890681325,
    "url": "/aparcamientos/81743",
    "lng": -3.6916474771097763,
    "name": "Aparcamiento para residentes. Espinillo"
  },
  {
    "lat": 40.40875051210095,
    "url": "/aparcamientos/24108",
    "lng": -3.683108580090566,
    "name": "Aparcamiento para residentes. Esteban Villegas"
  },
  {
    "lat": 40.41049299906421,
    "url": "/aparcamientos/13572",
    "lng": -3.6670384786113055,
    "name": "Aparcamiento para residentes. Estrella Polar"
  },
  {
    "lat": 40.38237185259869,
    "url": "/aparcamientos/24111",
    "lng": -3.741617241001304,
    "name": "Aparcamiento para residentes. Eugenia de Montijo"
  },
  {
    "lat": 40.47492529017092,
    "url": "/aparcamientos/13573",
    "lng": -3.706488256379613,
    "name": "Aparcamiento para residentes. Ferrol"
  },
  {
    "lat": 40.47887645814122,
    "url": "/aparcamientos/13498",
    "lng": -3.7026717892482286,
    "name": "Aparcamiento para residentes. Finisterre"
  },
  {
    "lat": 40.47760668331372,
    "url": "/aparcamientos/81745",
    "lng": -3.7070236600943316,
    "name": "Aparcamiento para residentes. Fonsagrada"
  },
  {
    "lat": 40.43409783062514,
    "url": "/aparcamientos/4831271",
    "lng": -3.6637111034337244,
    "name": "Aparcamiento para residentes. Francisco Altimiras"
  },
  {
    "lat": 40.430764308966516,
    "url": "/aparcamientos/13635",
    "lng": -3.6381424369676703,
    "name": "Aparcamiento para residentes. Francisco Rioja"
  },
  {
    "lat": 40.45673152306274,
    "url": "/aparcamientos/13634",
    "lng": -3.7101896436542843,
    "name": "Aparcamiento para residentes. Francos Rodríguez"
  },
  {
    "lat": 40.43314686152789,
    "url": "/aparcamientos/24119",
    "lng": -3.7115094961765007,
    "name": "Aparcamiento para residentes. Galileo"
  },
  {
    "lat": 40.38189262322995,
    "url": "/aparcamientos/13525",
    "lng": -3.769461928150037,
    "name": "Aparcamiento para residentes. García Escámez"
  },
  {
    "lat": 40.411890813674326,
    "url": "/aparcamientos/13534",
    "lng": -3.6461672639418037,
    "name": "Aparcamiento para residentes. García Tapia"
  },
  {
    "lat": 40.380219332370885,
    "url": "/aparcamientos/13527",
    "lng": -3.778525698149745,
    "name": "Aparcamiento para residentes. Garrovillas"
  },
  {
    "lat": 40.381028721740215,
    "url": "/aparcamientos/17449",
    "lng": -3.782740723549031,
    "name": "Aparcamiento para residentes. General Fanjul"
  },
  {
    "lat": 40.4612407669708,
    "url": "/aparcamientos/81746",
    "lng": -3.6855271656753406,
    "name": "Aparcamiento para residentes. General Gallegos"
  },
  {
    "lat": 40.40308453317466,
    "url": "/aparcamientos/24120",
    "lng": -3.690569861061406,
    "name": "Aparcamiento para residentes. General Lacy"
  },
  {
    "lat": 40.427339125243876,
    "url": "/aparcamientos/13520",
    "lng": -3.652975774084388,
    "name": "Aparcamiento para residentes. Gerardo Cordón"
  },
  {
    "lat": 40.434009722018914,
    "url": "/aparcamientos/13574",
    "lng": -3.647475422428178,
    "name": "Aparcamiento para residentes. Germán Pérez Carrasco"
  },
  {
    "lat": 40.42430993482302,
    "url": "/aparcamientos/13522",
    "lng": -3.6691082296156163,
    "name": "Aparcamiento para residentes. Goya I"
  },
  {
    "lat": 40.38906044446887,
    "url": "/aparcamientos/24121",
    "lng": -3.715263318539688,
    "name": "Aparcamiento para residentes. Guadalete"
  },
  {
    "lat": 40.43018204828575,
    "url": "/aparcamientos/13615",
    "lng": -3.667857812017234,
    "name": "Aparcamiento para residentes. Gómez Ulla"
  },
  {
    "lat": 40.39730561114474,
    "url": "/aparcamientos/13627",
    "lng": -3.7656191852299834,
    "name": "Aparcamiento para residentes. Illescas"
  },
  {
    "lat": 40.48033843092407,
    "url": "/aparcamientos/183559",
    "lng": -3.7154761411305794,
    "name": "Aparcamiento para residentes. Ilustración"
  },
  {
    "lat": 40.43566058828252,
    "url": "/aparcamientos/5421792",
    "lng": -3.608937018595295,
    "name": "Aparcamiento para residentes. Ilíada"
  },
  {
    "lat": 40.480133721268786,
    "url": "/aparcamientos/13502",
    "lng": -3.715072834653354,
    "name": "Aparcamiento para residentes. Isla de Arosa"
  },
  {
    "lat": 40.47994830334666,
    "url": "/aparcamientos/13575",
    "lng": -3.72171314015025,
    "name": "Aparcamiento para residentes. Isla de Ons"
  },
  {
    "lat": 40.48151743803618,
    "url": "/aparcamientos/13576",
    "lng": -3.7185680084021824,
    "name": "Aparcamiento para residentes. Isla de Tavira"
  },
  {
    "lat": 40.43888535658937,
    "url": "/aparcamientos/81748",
    "lng": -3.714470532658899,
    "name": "Aparcamiento para residentes. Islas Filipinas"
  },
  {
    "lat": 40.403093358788674,
    "url": "/aparcamientos/13577",
    "lng": -3.7244623800315098,
    "name": "Aparcamiento para residentes. Iván de Vargas"
  },
  {
    "lat": 40.395194834650084,
    "url": "/aparcamientos/13546",
    "lng": -3.7182975916582137,
    "name": "Aparcamiento para residentes. Jacinto Verdaguer"
  },
  {
    "lat": 40.43761436823094,
    "url": "/aparcamientos/13529",
    "lng": -3.7145867743039878,
    "name": "Aparcamiento para residentes. Joaquín María López"
  },
  {
    "lat": 40.4420542860285,
    "url": "/aparcamientos/63334",
    "lng": -3.677431988836071,
    "name": "Aparcamiento para residentes. Josep Pla"
  },
  {
    "lat": 40.43796630480829,
    "url": "/aparcamientos/7471768",
    "lng": -3.6922825693729613,
    "name": "Aparcamiento para residentes. José Abascal"
  },
  {
    "lat": 40.376653486409225,
    "url": "/aparcamientos/13526",
    "lng": -3.767482193237478,
    "name": "Aparcamiento para residentes. José Cadalso"
  },
  {
    "lat": 40.43842806737558,
    "url": "/aparcamientos/13556",
    "lng": -3.646774990120219,
    "name": "Aparcamiento para residentes. José del Hierro"
  },
  {
    "lat": 40.421144850524335,
    "url": "/aparcamientos/13578",
    "lng": -3.655462029294998,
    "name": "Aparcamiento para residentes. José Luis Arrese"
  },
  {
    "lat": 40.39617174301425,
    "url": "/aparcamientos/13579",
    "lng": -3.6925495357594427,
    "name": "Aparcamiento para residentes. Juan de Vera"
  },
  {
    "lat": 40.415487879730144,
    "url": "/aparcamientos/7432674",
    "lng": -3.6663688108783856,
    "name": "Aparcamiento para residentes. Juan Esplandiú"
  },
  {
    "lat": 40.403613502988044,
    "url": "/aparcamientos/13541",
    "lng": -3.6506252104762997,
    "name": "Aparcamiento para residentes. Juan Francisco Luján I"
  },
  {
    "lat": 40.40200823124863,
    "url": "/aparcamientos/17452",
    "lng": -3.6477107911706854,
    "name": "Aparcamiento para residentes. Juan Francisco Luján II"
  },
  {
    "lat": 40.45954021058541,
    "url": "/aparcamientos/13505",
    "lng": -3.6881990113147074,
    "name": "Aparcamiento para residentes. Juan Hurtado de Mendoza"
  },
  {
    "lat": 40.4603086651127,
    "url": "/aparcamientos/5556588",
    "lng": -3.68774686493202,
    "name": "Aparcamiento para residentes. Juan Ramón Jiménez"
  },
  {
    "lat": 40.43513174338273,
    "url": "/aparcamientos/81768",
    "lng": -3.684165438137451,
    "name": "Aparcamiento para residentes. Lagasca"
  },
  {
    "lat": 40.4101369517756,
    "url": "/aparcamientos/13580",
    "lng": -3.610828352314449,
    "name": "Aparcamiento para residentes. Lardero"
  },
  {
    "lat": 40.43365102378919,
    "url": "/aparcamientos/13581",
    "lng": -3.6770646901575432,
    "name": "Aparcamiento para residentes. Maldonado"
  },
  {
    "lat": 40.47401185962897,
    "url": "/aparcamientos/13582",
    "lng": -3.63736019255502,
    "name": "Aparcamiento para residentes. Manizales"
  },
  {
    "lat": 40.388977935330644,
    "url": "/aparcamientos/24122",
    "lng": -3.712576124964454,
    "name": "Aparcamiento para residentes. Manuel Noya"
  },
  {
    "lat": 40.485564403816525,
    "url": "/aparcamientos/13583",
    "lng": -3.6856211959935283,
    "name": "Aparcamiento para residentes. Marcos de Orueta"
  },
  {
    "lat": 40.42179377723586,
    "url": "/aparcamientos/13585",
    "lng": -3.657000749062221,
    "name": "Aparcamiento para residentes. Marqués de Corbera I"
  },
  {
    "lat": 40.42749437245121,
    "url": "/aparcamientos/13584",
    "lng": -3.6494052531918317,
    "name": "Aparcamiento para residentes. Marqués de Corbera II"
  },
  {
    "lat": 40.40761501410649,
    "url": "/aparcamientos/4831164",
    "lng": -3.7173807221939192,
    "name": "Aparcamiento para residentes. Marqués de Samaranch"
  },
  {
    "lat": 40.44375465057725,
    "url": "/aparcamientos/36275",
    "lng": -3.623407728129046,
    "name": "Aparcamiento para residentes. Marqués de Suances"
  },
  {
    "lat": 40.425111214332105,
    "url": "/aparcamientos/13490",
    "lng": -3.6613711705578993,
    "name": "Aparcamiento para residentes. Marqués de Zafra"
  },
  {
    "lat": 40.408814206064434,
    "url": "/aparcamientos/13521",
    "lng": -3.646974615049872,
    "name": "Aparcamiento para residentes. Marroquina"
  },
  {
    "lat": 40.46319897466814,
    "url": "/aparcamientos/24125",
    "lng": -3.716190674909368,
    "name": "Aparcamiento para residentes. Martín de Alzaga"
  },
  {
    "lat": 40.38971105596928,
    "url": "/aparcamientos/24127",
    "lng": -3.7031934079632545,
    "name": "Aparcamiento para residentes. Matilde Gayo"
  },
  {
    "lat": 40.475491425888734,
    "url": "/aparcamientos/46136",
    "lng": -3.7037690319053382,
    "name": "Aparcamiento para residentes. Melchor Fernández Almagro"
  },
  {
    "lat": 40.36221164246223,
    "url": "/aparcamientos/13531",
    "lng": -3.6963475368076857,
    "name": "Aparcamiento para residentes. Menasalbas"
  },
  {
    "lat": 40.419132414660844,
    "url": "/aparcamientos/183550",
    "lng": -3.6763886844447997,
    "name": "Aparcamiento para residentes. Menorca"
  },
  {
    "lat": 40.39191686458105,
    "url": "/aparcamientos/13586",
    "lng": -3.722422024464285,
    "name": "Aparcamiento para residentes. Mercedes Arteaga"
  },
  {
    "lat": 40.43666670909019,
    "url": "/aparcamientos/81792",
    "lng": -3.691160938098677,
    "name": "Aparcamiento para residentes. Miguel Angel"
  },
  {
    "lat": 40.37804988929718,
    "url": "/aparcamientos/13508",
    "lng": -3.7809392216852453,
    "name": "Aparcamiento para residentes. Mirabel"
  },
  {
    "lat": 40.43816446397422,
    "url": "/aparcamientos/13587",
    "lng": -3.6390967056081855,
    "name": "Aparcamiento para residentes. Misterios"
  },
  {
    "lat": 40.47832620355215,
    "url": "/aparcamientos/13588",
    "lng": -3.7057452570234384,
    "name": "Aparcamiento para residentes. Mondariz"
  },
  {
    "lat": 40.450129445324265,
    "url": "/aparcamientos/13589",
    "lng": -3.6966173957684987,
    "name": "Aparcamiento para residentes. Montevideo"
  },
  {
    "lat": 40.49390694682075,
    "url": "/aparcamientos/81770",
    "lng": -3.7123869254984436,
    "name": "Aparcamiento para residentes. Moralzarzal"
  },
  {
    "lat": 40.40929235748528,
    "url": "/aparcamientos/13540",
    "lng": -3.642005637795663,
    "name": "Aparcamiento para residentes. Moratalaz"
  },
  {
    "lat": 40.463982833786666,
    "url": "/aparcamientos/13516",
    "lng": -3.697019991313314,
    "name": "Aparcamiento para residentes. Müller"
  },
  {
    "lat": 40.42177328929485,
    "url": "/aparcamientos/13497",
    "lng": -3.676179378123513,
    "name": "Aparcamiento para residentes. Narváez"
  },
  {
    "lat": 40.37768208008626,
    "url": "/aparcamientos/81793",
    "lng": -3.776694134591487,
    "name": "Aparcamiento para residentes. Navalmoral de la Mata"
  },
  {
    "lat": 40.410868443000226,
    "url": "/aparcamientos/13590",
    "lng": -3.6753041315851216,
    "name": "Aparcamiento para residentes. Niño Jesús"
  },
  {
    "lat": 40.40215716063388,
    "url": "/aparcamientos/13519",
    "lng": -3.640382300925949,
    "name": "Aparcamiento para residentes. Nuestra Señora de Gracia"
  },
  {
    "lat": 40.461457569752326,
    "url": "/aparcamientos/13640",
    "lng": -3.7093194218803034,
    "name": "Aparcamiento para residentes. Ofelia Nieto"
  },
  {
    "lat": 40.390873159003725,
    "url": "/aparcamientos/24129",
    "lng": -3.7250854837848895,
    "name": "Aparcamiento para residentes. Oporto"
  },
  {
    "lat": 40.430094797919104,
    "url": "/aparcamientos/13543",
    "lng": -3.6827939887666843,
    "name": "Aparcamiento para residentes. Ortega y Gasset I"
  },
  {
    "lat": 40.42987952977711,
    "url": "/aparcamientos/13544",
    "lng": -3.6780407406414577,
    "name": "Aparcamiento para residentes. Ortega y Gasset II"
  },
  {
    "lat": 40.43029683639009,
    "url": "/aparcamientos/13549",
    "lng": -3.6806150060871925,
    "name": "Aparcamiento para residentes. Ortega y Gasset III"
  },
  {
    "lat": 40.43038301657138,
    "url": "/aparcamientos/13553",
    "lng": -3.684329518611805,
    "name": "Aparcamiento para residentes. Ortega y Gasset IV"
  },
  {
    "lat": 40.385235846277794,
    "url": "/aparcamientos/167691",
    "lng": -3.7072468134338923,
    "name": "Aparcamiento para residentes. Ortiz Campos"
  },
  {
    "lat": 40.375143122825484,
    "url": "/aparcamientos/13510",
    "lng": -3.7737671808919457,
    "name": "Aparcamiento para residentes. Osa de la Vega"
  },
  {
    "lat": 40.41221418658154,
    "url": "/aparcamientos/13628",
    "lng": -3.7238765894181416,
    "name": "Aparcamiento para residentes. Pablo Casals"
  },
  {
    "lat": 40.44517862138331,
    "url": "/aparcamientos/13591",
    "lng": -3.7063299914141563,
    "name": "Aparcamiento para residentes. Pablo Iglesias I"
  },
  {
    "lat": 40.448836583456306,
    "url": "/aparcamientos/13517",
    "lng": -3.709222086628092,
    "name": "Aparcamiento para residentes. Pablo Iglesias II"
  },
  {
    "lat": 40.36033692617683,
    "url": "/aparcamientos/13557",
    "lng": -3.6949856545050537,
    "name": "Aparcamiento para residentes. Pan y Toros"
  },
  {
    "lat": 40.457494031619916,
    "url": "/aparcamientos/81799",
    "lng": -3.688390425258081,
    "name": "Aparcamiento para residentes. Panamá"
  },
  {
    "lat": 40.47725506619179,
    "url": "/aparcamientos/63333",
    "lng": -3.6406233923237314,
    "name": "Aparcamiento para residentes. Parque de Santa María"
  },
  {
    "lat": 40.42812626338584,
    "url": "/aparcamientos/13619",
    "lng": -3.720651954392569,
    "name": "Aparcamiento para residentes. Paseo de Pintor Rosales I"
  },
  {
    "lat": 40.427939697492924,
    "url": "/aparcamientos/13637",
    "lng": -3.721675597515291,
    "name": "Aparcamiento para residentes. Paseo de Pintor Rosales III"
  },
  {
    "lat": 40.39272811310567,
    "url": "/aparcamientos/13592",
    "lng": -3.707784721668437,
    "name": "Aparcamiento para residentes. Pedro Yagüe"
  },
  {
    "lat": 40.414296394398114,
    "url": "/aparcamientos/13545",
    "lng": -3.6652019753895515,
    "name": "Aparcamiento para residentes. Pez Volador"
  },
  {
    "lat": 40.40255377348087,
    "url": "/aparcamientos/24131",
    "lng": -3.705365746147262,
    "name": "Aparcamiento para residentes. Peñuelas"
  },
  {
    "lat": 40.40720726405869,
    "url": "/aparcamientos/13542",
    "lng": -3.6394755525698588,
    "name": "Aparcamiento para residentes. Pico de los Artilleros"
  },
  {
    "lat": 40.43561355880132,
    "url": "/aparcamientos/81802",
    "lng": -3.6711302937521397,
    "name": "Aparcamiento para residentes. Pilar de Zaragoza"
  },
  {
    "lat": 40.44233465735811,
    "url": "/aparcamientos/13595",
    "lng": -3.652177539229519,
    "name": "Aparcamiento para residentes. Platón"
  },
  {
    "lat": 40.45328805539019,
    "url": "/aparcamientos/5298038",
    "lng": -3.704634105906319,
    "name": "Aparcamiento para residentes. Poeta Leopoldo de Luis"
  },
  {
    "lat": 40.44910622626739,
    "url": "/aparcamientos/13488",
    "lng": -3.671618277009419,
    "name": "Aparcamiento para residentes. Pradillo"
  },
  {
    "lat": 40.44918185512993,
    "url": "/aparcamientos/7401268",
    "lng": -3.6710058129264764,
    "name": "Aparcamiento para residentes. Pradillo II"
  },
  {
    "lat": 40.39446617270601,
    "url": "/aparcamientos/13596",
    "lng": -3.663852045873069,
    "name": "Aparcamiento para residentes. Puerto Monasterio"
  },
  {
    "lat": 40.43951614014729,
    "url": "/aparcamientos/13617",
    "lng": -3.7071196707992047,
    "name": "Aparcamiento para residentes. Pérez Pillado"
  },
  {
    "lat": 40.41506242077731,
    "url": "/aparcamientos/13593",
    "lng": -3.672941578351561,
    "name": "Aparcamiento para residentes. Pío Baroja I"
  },
  {
    "lat": 40.403325112237404,
    "url": "/aparcamientos/13594",
    "lng": -3.6377064713535683,
    "name": "Aparcamiento para residentes. Pío Baroja II"
  },
  {
    "lat": 40.38371073816265,
    "url": "/aparcamientos/13509",
    "lng": -3.7642871215174827,
    "name": "Aparcamiento para residentes. Rafael Finat"
  },
  {
    "lat": 40.45423592494194,
    "url": "/aparcamientos/13506",
    "lng": -3.6878618457591212,
    "name": "Aparcamiento para residentes. Rafael Salgado"
  },
  {
    "lat": 40.38063517341089,
    "url": "/aparcamientos/24132",
    "lng": -3.7111687792815276,
    "name": "Aparcamiento para residentes. Rafaela Ybarra"
  },
  {
    "lat": 40.417092659885896,
    "url": "/aparcamientos/183557",
    "lng": -3.7129905271195467,
    "name": "Aparcamiento para residentes. Ramales"
  },
  {
    "lat": 40.44607141622334,
    "url": "/aparcamientos/13599",
    "lng": -3.668298074072127,
    "name": "Aparcamiento para residentes. Ramos Carrión"
  },
  {
    "lat": 40.48330982107021,
    "url": "/aparcamientos/13597",
    "lng": -3.7244038246970588,
    "name": "Aparcamiento para residentes. Ramón Gómez de la Serna"
  },
  {
    "lat": 40.47769399639783,
    "url": "/aparcamientos/13598",
    "lng": -3.708947586113176,
    "name": "Aparcamiento para residentes. Redondela"
  },
  {
    "lat": 40.447091226852045,
    "url": "/aparcamientos/81827",
    "lng": -3.710300419035648,
    "name": "Aparcamiento para residentes. Reina Victoria"
  },
  {
    "lat": 40.4728431267083,
    "url": "/aparcamientos/13618",
    "lng": -3.7051923830735447,
    "name": "Aparcamiento para residentes. Ribadavia"
  },
  {
    "lat": 40.47738824582847,
    "url": "/aparcamientos/13491",
    "lng": -3.710324683665145,
    "name": "Aparcamiento para residentes. Ribadeo"
  },
  {
    "lat": 40.39392846187197,
    "url": "/aparcamientos/13484",
    "lng": -3.6955547777769118,
    "name": "Aparcamiento para residentes. Rutilio Gacís"
  },
  {
    "lat": 40.441862351880786,
    "url": "/aparcamientos/81829",
    "lng": -3.7020503958373716,
    "name": "Aparcamiento para residentes. Ríos Rosas"
  },
  {
    "lat": 40.45359534488958,
    "url": "/aparcamientos/13600",
    "lng": -3.697042370060708,
    "name": "Aparcamiento para residentes. San Amaro"
  },
  {
    "lat": 40.42536764645908,
    "url": "/aparcamientos/13638",
    "lng": -3.7267053522879783,
    "name": "Aparcamiento para residentes. San Antonio de la Florida"
  },
  {
    "lat": 40.34275979067738,
    "url": "/aparcamientos/13601",
    "lng": -3.7157159732461307,
    "name": "Aparcamiento para residentes. San Aureliano"
  },
  {
    "lat": 40.40401372127027,
    "url": "/aparcamientos/81830",
    "lng": -3.601675154549265,
    "name": "Aparcamiento para residentes. San Cipriano"
  },
  {
    "lat": 40.4414293715104,
    "url": "/aparcamientos/13602",
    "lng": -3.713907903523528,
    "name": "Aparcamiento para residentes. San Francisco de Sales I"
  },
  {
    "lat": 40.44186954568839,
    "url": "/aparcamientos/81831",
    "lng": -3.7141130129979443,
    "name": "Aparcamiento para residentes. San Francisco de Sales II"
  },
  {
    "lat": 40.45779993088596,
    "url": "/aparcamientos/13603",
    "lng": -3.69747502964215,
    "name": "Aparcamiento para residentes. San Germán"
  },
  {
    "lat": 40.44114575525758,
    "url": "/aparcamientos/13621",
    "lng": -3.693906999649197,
    "name": "Aparcamiento para residentes. San Juan de la Cruz"
  },
  {
    "lat": 40.45084961018325,
    "url": "/aparcamientos/81833",
    "lng": -3.6891952944971687,
    "name": "Aparcamiento para residentes. San Juan de la Salle"
  },
  {
    "lat": 40.422208199253056,
    "url": "/aparcamientos/13604",
    "lng": -3.6506275116219804,
    "name": "Aparcamiento para residentes. San Lamberto"
  },
  {
    "lat": 40.4075187512468,
    "url": "/aparcamientos/13622",
    "lng": -3.653055244559577,
    "name": "Aparcamiento para residentes. Sancho de Córdoba"
  },
  {
    "lat": 40.41468120182588,
    "url": "/aparcamientos/81836",
    "lng": -3.705162347755471,
    "name": "Aparcamiento para residentes. Santa Cruz"
  },
  {
    "lat": 40.38131130575197,
    "url": "/aparcamientos/13555",
    "lng": -3.608459149580722,
    "name": "Aparcamiento para residentes. Santa Eugenia"
  },
  {
    "lat": 40.48017828214144,
    "url": "/aparcamientos/13496",
    "lng": -3.6479305874314982,
    "name": "Aparcamiento para residentes. Santa Susana"
  },
  {
    "lat": 40.47633184455615,
    "url": "/aparcamientos/13605",
    "lng": -3.6430212857319466,
    "name": "Aparcamiento para residentes. Santa Virgilia"
  },
  {
    "lat": 40.444172355989295,
    "url": "/aparcamientos/81838",
    "lng": -3.7102932755491707,
    "name": "Aparcamiento para residentes. Santander"
  },
  {
    "lat": 40.45076858535646,
    "url": "/aparcamientos/13507",
    "lng": -3.6876731819953954,
    "name": "Aparcamiento para residentes. Santo Domingo de Silos"
  },
  {
    "lat": 40.475766056159074,
    "url": "/aparcamientos/24138",
    "lng": -3.7148023465954534,
    "name": "Aparcamiento para residentes. Sarriá"
  },
  {
    "lat": 40.477151596340875,
    "url": "/aparcamientos/81841",
    "lng": -3.6590265639800315,
    "name": "Aparcamiento para residentes. Somontín"
  },
  {
    "lat": 40.459955092735676,
    "url": "/aparcamientos/13492",
    "lng": -3.6956455808859126,
    "name": "Aparcamiento para residentes. Sor Ángela de la Cruz"
  },
  {
    "lat": 40.39145429571687,
    "url": "/aparcamientos/13511",
    "lng": -3.764928439225643,
    "name": "Aparcamiento para residentes. Tembleque"
  },
  {
    "lat": 40.38202222447678,
    "url": "/aparcamientos/13547",
    "lng": -3.6979180724386005,
    "name": "Aparcamiento para residentes. Tomelloso"
  },
  {
    "lat": 40.45463546024847,
    "url": "/aparcamientos/13489",
    "lng": -3.6735603027224646,
    "name": "Aparcamiento para residentes. Uruguay"
  },
  {
    "lat": 40.430266476138364,
    "url": "/aparcamientos/13559",
    "lng": -3.731320544485255,
    "name": "Aparcamiento para residentes. Valladolid"
  },
  {
    "lat": 40.43261178393764,
    "url": "/aparcamientos/24141",
    "lng": -3.707683985900638,
    "name": "Aparcamiento para residentes. Valle de Suchil"
  },
  {
    "lat": 40.45521747089742,
    "url": "/aparcamientos/13523",
    "lng": -3.6803238974977317,
    "name": "Aparcamiento para residentes. Valparaíso"
  },
  {
    "lat": 40.47097243608375,
    "url": "/aparcamientos/13623",
    "lng": -3.686711391241331,
    "name": "Aparcamiento para residentes. Vasconcelos"
  },
  {
    "lat": 40.4734409803006,
    "url": "/aparcamientos/13513",
    "lng": -3.688211148150712,
    "name": "Aparcamiento para residentes. Vicente Gaceo"
  },
  {
    "lat": 40.46725432234968,
    "url": "/aparcamientos/13606",
    "lng": -3.6309383657037775,
    "name": "Aparcamiento para residentes. Villa Rosa"
  },
  {
    "lat": 40.405986918268454,
    "url": "/aparcamientos/13607",
    "lng": -3.60680746518132,
    "name": "Aparcamiento para residentes. Villacarlos"
  },
  {
    "lat": 40.41982661310281,
    "url": "/aparcamientos/13608",
    "lng": -3.630058923275035,
    "name": "Aparcamiento para residentes. Villaescusa"
  },
  {
    "lat": 40.40645909050053,
    "url": "/aparcamientos/13609",
    "lng": -3.753230652462212,
    "name": "Aparcamiento para residentes. Villamanín I"
  },
  {
    "lat": 40.405892426151894,
    "url": "/aparcamientos/13528",
    "lng": -3.7544735496324453,
    "name": "Aparcamiento para residentes. Villamanín II"
  },
  {
    "lat": 40.48651259805486,
    "url": "/aparcamientos/81866",
    "lng": -3.689784149213909,
    "name": "Aparcamiento para residentes. Virgen de Aránzazu"
  },
  {
    "lat": 40.433864217378236,
    "url": "/aparcamientos/13610",
    "lng": -3.657295067306364,
    "name": "Aparcamiento para residentes. Virgen de La Alegría"
  },
  {
    "lat": 40.43512313182771,
    "url": "/aparcamientos/13612",
    "lng": -3.657708192601482,
    "name": "Aparcamiento para residentes. Virgen de La Roca I"
  },
  {
    "lat": 40.435312512147966,
    "url": "/aparcamientos/13613",
    "lng": -3.657674667298404,
    "name": "Aparcamiento para residentes. Virgen de La Roca II"
  },
  {
    "lat": 40.43590606878259,
    "url": "/aparcamientos/13639",
    "lng": -3.6578573055759387,
    "name": "Aparcamiento para residentes. Virgen de Lourdes"
  },
  {
    "lat": 40.413421489994384,
    "url": "/aparcamientos/13611",
    "lng": -3.7209782941840133,
    "name": "Aparcamiento para residentes. Virgen del Puerto"
  },
  {
    "lat": 40.438754114417975,
    "url": "/aparcamientos/7397971",
    "lng": -3.6512822080388543,
    "name": "Aparcamiento para Residentes. Virgen del Romero"
  },
  {
    "lat": 40.386090109968336,
    "url": "/aparcamientos/13614",
    "lng": -3.7377818777393292,
    "name": "Aparcamiento para residentes. Vista Alegre"
  },
  {
    "lat": 40.3884352927236,
    "url": "/aparcamientos/61831",
    "lng": -3.7443700438845036,
    "name": "Aparcamiento para residentes. Vía Carpetana"
  },
  {
    "lat": 40.41809765692244,
    "url": "/aparcamientos/13473",
    "lng": -3.706306013191402,
    "name": "Aparcamiento público. Descalzas"
  },
  {
    "lat": 40.42372251184839,
    "url": "/aparcamientos/13463",
    "lng": -3.7116577340508523,
    "name": "Aparcamiento público. Plaza de España"
  }
]